District,Lat,Lon,Plastic,Paper,Glass,Metal,General,Bio
Seo-gu,36.3551,127.3849,1450,1020,330,230,1650,590
Yuseong-gu,36.3622,127.3565,1380,980,320,220,1600,560
Daedeok-gu,36.3467,127.4157,1200,840,270,190,1400,500
Jung-gu,36.3200,127.4239,1250,860,290,200,1500,530
Dong-gu,36.3287,127.4547,1180,820,260,180,1380,480
