District,Lat,Lon,Plastic,Paper,Glass,Metal,General,Bio
Jongno-gu,37.5729,126.9793,1200,900,300,200,1500,500
Gangnam-gu,37.5172,127.0473,2000,1300,450,350,2100,800
Songpa-gu,37.5145,127.1056,1800,1200,400,300,1900,700
Mapo-gu,37.5636,126.9087,1500,900,320,230,1600,600
Seocho-gu,37.4836,127.0326,1700,1100,370,260,1800,650
Yongsan-gu,37.5326,126.9903,1400,820,310,200,1480,550
