District,Lat,Lon,Plastic,Paper,Glass,Metal,General,Bio
Suwon,37.2636,127.0286,1800,1300,450,330,2000,750
Goyang,37.6584,126.8320,1600,1150,390,280,1800,680
Yongin,37.2410,127.1776,1700,1200,410,295,1900,700
Bucheon,37.5034,126.7660,1550,1080,360,260,1750,650
Ansan,37.3219,126.8309,1500,1020,340,240,1680,620
