District,Lat,Lon,Plastic,Paper,Glass,Metal,General,Bio
Pohang,36.0190,129.3435,1200,800,280,200,1400,500
Gyeongju,35.8562,129.2247,1150,780,270,190,1350,480
Andong,36.5684,128.7294,950,650,230,170,1150,420
Gumi,36.1195,128.3446,1250,850,300,210,1500,560
Yeongju,36.8057,128.6241,880,600,215,155,1030,380
