District,Lat,Lon,Plastic,Paper,Glass,Metal,General,Bio
Changwon,35.2285,128.6811,1500,1050,350,260,1700,620
Jinju,35.1796,128.1076,1300,900,300,220,1500,550
Geoje,34.8803,128.6210,1150,820,270,190,1380,480
Tongyeong,34.8544,128.4330,980,680,240,170,1180,430
Miryang,35.4935,128.7483,1050,720,260,180,1250,460
